{"type":"FeatureCollection","features":[{"type":"Feature","id":1,"geometry":{"type":"Point","coordinates":[-115.18165448884328,36.132614572722936]},"properties":{"OBJECTID":1,"Station_Number":1,"Station_Names":"Area 15","X":774780.78670000006,"Y":26750137.079999998,"Z":0,"Status":"Approved","Jurisdiction":"Clark County","CCWRD_Status":"Proposed Alignment"}},{"type":"Feature","id":2,"geometry":{"type":"Point","coordinates":[-115.17372551583145,36.134197665149472]},"properties":{"OBJECTID":2,"Station_Number":2,"Station_Names":"3025 Sammy Davis","X":777119.69339999999,"Y":26750723.120000001,"Z":0,"Status":"Approved","Jurisdiction":"City of Las Vegas","CCWRD_Status":"Proposed Alignment"}},{"type":"Feature","id":3,"geometry":{"type":"Point","coordinates":[-115.1669365753868,36.136961466342875]},"properties":{"OBJECTID":3,"Station_Number":3,"Station_Names":"Circus Circus","X":779120.03929999995,"Y":26751737.699999999,"Z":0,"Status":"Approved","Jurisdiction":"Clark County","CCWRD_Status":"Proposed Alignment"}},{"type":"Feature","id":4,"geometry":{"type":"Point","coordinates":[-115.15974973157573,36.137288175942899]},"properties":{"OBJECTID":4,"Station_Number":4,"Station_Names":"Fontainebleau","X":781241.59860000003,"Y":26751865.800000001,"Z":0,"Status":"Approved","Jurisdiction":"Clark County","CCWRD_Status":"Proposed Alignment"}},{"type":"Feature","id":5,"geometry":{"type":"Point","coordinates":[-115.15725500970692,36.139958846398443]},"properties":{"OBJECTID":5,"Station_Number":7,"Station_Names":"2601 Las Vegas Blvd","X":781973.95499999996,"Y":26752841.18,"Z":0,"Status":"Approved","Jurisdiction":"Clark County","CCWRD_Status":"Proposed Alignment"}},{"type":"Feature","id":6,"geometry":{"type":"Point","coordinates":[-115.15698629323371,36.141825267411441]},"properties":{"OBJECTID":6,"Station_Number":8,"Station_Names":"Sahara","X":782050.3149,"Y":26753520.93,"Z":0,"Status":"Approved","Jurisdiction":"Clark County","CCWRD_Status":"Proposed Alignment"}},{"type":"Feature","id":7,"geometry":{"type":"Point","coordinates":[-115.16605527178899,36.125275146268145]},"properties":{"OBJECTID":7,"Station_Number":14,"Station_Names":"Wynn Station","X":779398.53209999995,"Y":26747484.850000001,"Z":0,"Status":"Approved","Jurisdiction":"Clark County","CCWRD_Status":"Proposed Alignment"}},{"type":"Feature","id":8,"geometry":{"type":"Point","coordinates":[-115.16938968104972,36.124698492848616]},"properties":{"OBJECTID":8,"Station_Number":15,"Station_Names":"Pallazo","X":778414.72080000001,"Y":26747270.73,"Z":0,"Status":"Approved","Jurisdiction":"Clark County","CCWRD_Status":"Proposed Alignment"}},{"type":"Feature","id":9,"geometry":{"type":"Point","coordinates":[-115.17237107017522,36.123934552933271]},"properties":{"OBJECTID":9,"Station_Number":16,"Station_Names":"Treasure Island","X":777535.43759999995,"Y":26746988.91,"Z":0,"Status":"Approved","Jurisdiction":"Clark County","CCWRD_Status":"Proposed Alignment"}},{"type":"Feature","id":10,"geometry":{"type":"Point","coordinates":[-115.17399993441335,36.12146317775116]},"properties":{"OBJECTID":10,"Station_Number":17,"Station_Names":"Mirage / Hard Rock","X":777058.18830000004,"Y":26746087.27,"Z":0,"Status":"Approved","Jurisdiction":"Clark County","CCWRD_Status":"Proposed Alignment"}},{"type":"Feature","id":11,"geometry":{"type":"Point","coordinates":[-115.17075997546351,36.120823237328423]},"properties":{"OBJECTID":11,"Station_Number":18,"Station_Names":"Venetian","X":778016.03590000002,"Y":26745858.370000001,"Z":0,"Status":"Approved","Jurisdiction":"Clark County","CCWRD_Status":"Proposed Alignment"}},{"type":"Feature","id":12,"geometry":{"type":"Point","coordinates":[-115.16857038290166,36.119931776449071]},"properties":{"OBJECTID":12,"Station_Number":19,"Station_Names":"Harrahs","X":778664.07949999999,"Y":26745536.620000001,"Z":0,"Status":"Approved","Jurisdiction":"Clark County","CCWRD_Status":"Proposed Alignment"}},{"type":"Feature","id":13,"geometry":{"type":"Point","coordinates":[-115.17128647700741,36.119100929229731]},"properties":{"OBJECTID":13,"Station_Number":20,"Station_Names":"Linq","X":777863.20050000004,"Y":26745230.77,"Z":0,"Status":"Approved","Jurisdiction":"Clark County","CCWRD_Status":"Proposed Alignment"}},{"type":"Feature","id":14,"geometry":{"type":"Point","coordinates":[-115.17352354416226,36.116640109946275]},"properties":{"OBJECTID":14,"Station_Number":21,"Station_Names":"Caesars Palace","X":777206.28319999995,"Y":26744332.210000001,"Z":0,"Status":"Approved","Jurisdiction":"Clark County","CCWRD_Status":"Proposed Alignment"}},{"type":"Feature","id":15,"geometry":{"type":"Point","coordinates":[-115.17532706107846,36.11510642406347]},"properties":{"OBJECTID":15,"Station_Number":22,"Station_Names":"Caesars South","X":776675.96039999998,"Y":26743771.690000001,"Z":0,"Status":"Approved","Jurisdiction":"Clark County","CCWRD_Status":"Proposed Alignment"}},{"type":"Feature","id":16,"geometry":{"type":"Point","coordinates":[-115.16930652865545,36.115762890369446]},"properties":{"OBJECTID":16,"Station_Number":23,"Station_Names":"Flamingo","X":778453.13289999997,"Y":26744018.170000002,"Z":0,"Status":"Approved","Jurisdiction":"Clark County","CCWRD_Status":"Proposed Alignment"}},{"type":"Feature","id":17,"geometry":{"type":"Point","coordinates":[-115.1717865722179,36.114914979016518]},"properties":{"OBJECTID":17,"Station_Number":24,"Station_Names":"Cromwell","X":777721.95409999997,"Y":26743706.41,"Z":0,"Status":"Approved","Jurisdiction":"Clark County","CCWRD_Status":"Proposed Alignment"}},{"type":"Feature","id":18,"geometry":{"type":"Point","coordinates":[-115.16599337055311,36.115172566677806]},"properties":{"OBJECTID":18,"Station_Number":25,"Station_Names":"Westin","X":779432.60309999995,"Y":26743807.469999999,"Z":0,"Status":"Approved","Jurisdiction":"Clark County","CCWRD_Status":"Proposed Alignment"}},{"type":"Feature","id":19,"geometry":{"type":"Point","coordinates":[-115.17221113978373,36.114095391020371]},"properties":{"OBJECTID":19,"Station_Number":26,"Station_Names":"Ballys","X":777597.81770000001,"Y":26743407.539999999,"Z":0,"Status":"Approved","Jurisdiction":"Clark County","CCWRD_Status":"Proposed Alignment"}},{"type":"Feature","id":20,"geometry":{"type":"Point","coordinates":[-115.17502283364539,36.112255915660739]},"properties":{"OBJECTID":20,"Station_Number":27,"Station_Names":"Bellagio","X":776770.17359999998,"Y":26742734.449999999,"Z":0,"Status":"Approved","Jurisdiction":"Clark County","CCWRD_Status":"Proposed Alignment"}},{"type":"Feature","id":21,"geometry":{"type":"Point","coordinates":[-115.17210502483552,36.111653811399599]},"properties":{"OBJECTID":21,"Station_Number":28,"Station_Names":"Paris","X":777632.91929999995,"Y":26742518.91,"Z":0,"Status":"Approved","Jurisdiction":"Clark County","CCWRD_Status":"Proposed Alignment"}},{"type":"Feature","id":22,"geometry":{"type":"Point","coordinates":[-115.17478239442302,36.110317737827529]},"properties":{"OBJECTID":22,"Station_Number":29,"Station_Names":"Cosmopolitan","X":776844.15590000001,"Y":26742029.23,"Z":0,"Status":"Approved","Jurisdiction":"Clark County","CCWRD_Status":"Proposed Alignment"}},{"type":"Feature","id":23,"geometry":{"type":"Point","coordinates":[-115.17202925465955,36.110654076549025]},"properties":{"OBJECTID":23,"Station_Number":30,"Station_Names":"Planet Hollywood","X":777656.83900000004,"Y":26742155.09,"Z":0,"Status":"Approved","Jurisdiction":"Clark County","CCWRD_Status":"Proposed Alignment"}},{"type":"Feature","id":24,"geometry":{"type":"Point","coordinates":[-115.17172452399224,36.107787320571219]},"properties":{"OBJECTID":24,"Station_Number":31,"Station_Names":"LVB- Harmon","X":777751.26569999999,"Y":26741111.940000001,"Z":0,"Status":"Approved","Jurisdiction":"Clark County","CCWRD_Status":"Proposed Alignment"}},{"type":"Feature","id":25,"geometry":{"type":"Point","coordinates":[-115.17515213574579,36.107149753252791]},"properties":{"OBJECTID":25,"Station_Number":32,"Station_Names":"Aria","X":776739.78619999997,"Y":26740875.59,"Z":0,"Status":"Approved","Jurisdiction":"Clark County","CCWRD_Status":"Proposed Alignment"}},{"type":"Feature","id":26,"geometry":{"type":"Point","coordinates":[-115.17075272245053,36.106035679030768]},"properties":{"OBJECTID":26,"Station_Number":33,"Station_Names":"Showcase Mall","X":778041.02390000003,"Y":26740475.539999999,"Z":0,"Status":"Approved","Jurisdiction":"Clark County","CCWRD_Status":"Proposed Alignment"}},{"type":"Feature","id":27,"geometry":{"type":"Point","coordinates":[-115.1770220205954,36.103771236758853]},"properties":{"OBJECTID":27,"Station_Number":34,"Station_Names":"T-Mobile Arena","X":776192.59129999997,"Y":26739643.460000001,"Z":0,"Status":"Approved","Jurisdiction":"Clark County","CCWRD_Status":"Proposed Alignment"}},{"type":"Feature","id":28,"geometry":{"type":"Point","coordinates":[-115.17739103286861,36.104517603008887]},"properties":{"OBJECTID":28,"Station_Number":35,"Station_Names":"Park MGM","X":776082.45200000005,"Y":26739914.690000001,"Z":0,"Status":"Approved","Jurisdiction":"Clark County","CCWRD_Status":"Proposed Alignment"}},{"type":"Feature","id":29,"geometry":{"type":"Point","coordinates":[-115.17173297049612,36.10216663764438]},"properties":{"OBJECTID":29,"Station_Number":36,"Station_Names":"MGM Grand","X":777757.43200000003,"Y":26739065.940000001,"Z":0,"Status":"Approved","Jurisdiction":"Clark County","CCWRD_Status":"Proposed Alignment"}},{"type":"Feature","id":30,"geometry":{"type":"Point","coordinates":[-115.17490060819091,36.101676090642265]},"properties":{"OBJECTID":30,"Station_Number":37,"Station_Names":"New York, New York","X":776822.45310000004,"Y":26738883.43,"Z":0,"Status":"Approved","Jurisdiction":"Clark County","CCWRD_Status":"Proposed Alignment"}},{"type":"Feature","id":31,"geometry":{"type":"Point","coordinates":[-115.1718013745129,36.100278603406501]},"properties":{"OBJECTID":31,"Station_Number":38,"Station_Names":"Tropicana","X":777740.13390000002,"Y":26738378.59,"Z":0,"Status":"Approved","Jurisdiction":"Clark County","CCWRD_Status":"Proposed Alignment"}},{"type":"Feature","id":32,"geometry":{"type":"Point","coordinates":[-115.17485098797786,36.099823035514703]},"properties":{"OBJECTID":32,"Station_Number":39,"Station_Names":"Excalibur","X":776839.94469999999,"Y":26738208.960000001,"Z":0,"Status":"Approved","Jurisdiction":"Clark County","CCWRD_Status":"Proposed Alignment"}},{"type":"Feature","id":33,"geometry":{"type":"Point","coordinates":[-115.17481385934991,36.095770826331382]},"properties":{"OBJECTID":33,"Station_Number":40,"Station_Names":"Luxor","X":776857.10939999996,"Y":26736733.960000001,"Z":0,"Status":"Approved","Jurisdiction":"Clark County","CCWRD_Status":"Proposed Alignment"}},{"type":"Feature","id":34,"geometry":{"type":"Point","coordinates":[-115.17469813127802,36.092838205711743]},"properties":{"OBJECTID":34,"Station_Number":41,"Station_Names":"Mandalay Bay","X":776895.78390000004,"Y":26735666.600000001,"Z":0,"Status":"Approved","Jurisdiction":"Clark County","CCWRD_Status":"Proposed Alignment"}},{"type":"Feature","id":35,"geometry":{"type":"Point","coordinates":[-115.17458862044131,36.088907966924566]},"properties":{"OBJECTID":35,"Station_Number":42,"Station_Names":"Mandalay Bay Convention Center","X":776934.14980000001,"Y":26734236.09,"Z":0,"Status":"Approved","Jurisdiction":"Clark County","CCWRD_Status":"Proposed Alignment"}},{"type":"Feature","id":36,"geometry":{"type":"Point","coordinates":[-115.17217085278868,36.086787417534445]},"properties":{"OBJECTID":36,"Station_Number":43,"Station_Names":"4613 Las Vegas Blvd","X":777651.74789999996,"Y":26733467.199999999,"Z":0,"Status":"Approved","Jurisdiction":"Clark County","CCWRD_Status":"Under CCWRD Review"}},{"type":"Feature","id":37,"geometry":{"type":"Point","coordinates":[-115.17151462681447,36.084340558777029]},"properties":{"OBJECTID":37,"Station_Number":44,"Station_Names":"5051 Las Vegas Blvd","X":777849.40740000003,"Y":26732577.34,"Z":0,"Status":"Approved","Jurisdiction":"Clark County","CCWRD_Status":"Proposed Alignment"}},{"type":"Feature","id":38,"geometry":{"type":"Point","coordinates":[-115.18322788048214,36.08969012446525]},"properties":{"OBJECTID":38,"Station_Number":45,"Station_Names":"Allegiant Stadium East","X":774380.48910000001,"Y":26734510.190000001,"Z":0,"Status":"Approved","Jurisdiction":"Clark County","CCWRD_Status":"Proposed Alignment"}},{"type":"Feature","id":39,"geometry":{"type":"Point","coordinates":[-115.18491391364638,36.08785018647346]},"properties":{"OBJECTID":39,"Station_Number":46,"Station_Names":"Allegiant Stadium South","X":773885.09510000004,"Y":26733838.390000001,"Z":0,"Status":"Approved","Jurisdiction":"Clark County","CCWRD_Status":"Proposed Alignment"}},{"type":"Feature","id":40,"geometry":{"type":"Point","coordinates":[-115.17399896571715,36.068181148039592]},"properties":{"OBJECTID":40,"Station_Number":47,"Station_Names":"Town Square","X":777140.1078,"Y":26726692.07,"Z":0,"Status":"Approved","Jurisdiction":"Clark County","CCWRD_Status":"Proposed Alignment"}},{"type":"Feature","id":41,"geometry":{"type":"Point","coordinates":[-115.17267125170758,36.050985311619712]},"properties":{"OBJECTID":41,"Station_Number":48,"Station_Names":"Blue Diamond","X":777558.89580000006,"Y":26720434.300000001,"Z":0,"Status":"Approved","Jurisdiction":"Clark County","CCWRD_Status":"Proposed Alignment"}},{"type":"Feature","id":42,"geometry":{"type":"Point","coordinates":[-115.19024547146346,36.101636977313191]},"properties":{"OBJECTID":42,"Station_Number":49,"Station_Names":"Wild Wild West","X":772289.56900000002,"Y":26738850.510000002,"Z":0,"Status":"Approved","Jurisdiction":"Clark County","CCWRD_Status":"Proposed Alignment"}},{"type":"Feature","id":43,"geometry":{"type":"Point","coordinates":[-115.20010744487405,36.102144845733541]},"properties":{"OBJECTID":43,"Station_Number":50,"Station_Names":"Orleans","X":769375.56900000002,"Y":26739023.75,"Z":0,"Status":"Approved","Jurisdiction":"Clark County","CCWRD_Status":"Proposed Alignment"}},{"type":"Feature","id":44,"geometry":{"type":"Point","coordinates":[-115.16839645918124,36.129705904829123]},"properties":{"OBJECTID":44,"Station_Number":51,"Station_Names":"West Wynn","X":778700.25459999999,"Y":26749094.739999998,"Z":0,"Status":"Approved","Jurisdiction":"Clark County","CCWRD_Status":"Proposed Alignment"}},{"type":"Feature","id":45,"geometry":{"type":"Point","coordinates":[-115.16966154684701,36.128276070766979]},"properties":{"OBJECTID":45,"Station_Number":52,"Station_Names":"Fashion Show Mall","X":778328.89029999997,"Y":26748572.670000002,"Z":0,"Status":"Approved","Jurisdiction":"Clark County","CCWRD_Status":"Proposed Alignment"}},{"type":"Feature","id":46,"geometry":{"type":"Point","coordinates":[-115.18709680807126,36.1259846788966]},"properties":{"OBJECTID":46,"Station_Number":53,"Station_Names":"Spring Mtn / Procyon","X":773183.57259999996,"Y":26747717.120000001,"Z":0,"Status":"Approved","Jurisdiction":"Clark County","CCWRD_Status":"Proposed Alignment"}},{"type":"Feature","id":47,"geometry":{"type":"Point","coordinates":[-115.18916051121823,36.124178689114665]},"properties":{"OBJECTID":47,"Station_Number":54,"Station_Names":"Spring Mtn / Twain","X":772576.79980000004,"Y":26747057.239999998,"Z":0,"Status":"Approved","Jurisdiction":"Clark County","CCWRD_Status":"Proposed Alignment"}},{"type":"Feature","id":48,"geometry":{"type":"Point","coordinates":[-115.18779161583292,36.116097976548872]},"properties":{"OBJECTID":48,"Station_Number":55,"Station_Names":"Rio","X":772993.03280000004,"Y":26744117.41,"Z":0,"Status":"Approved","Jurisdiction":"Clark County","CCWRD_Status":"Proposed Alignment"}},{"type":"Feature","id":49,"geometry":{"type":"Point","coordinates":[-115.19251816557598,36.116724925904784]},"properties":{"OBJECTID":49,"Station_Number":56,"Station_Names":"Gold Coast Casino","X":771596.12679999997,"Y":26744339.98,"Z":0,"Status":"Approved","Jurisdiction":"Clark County","CCWRD_Status":"Proposed Alignment"}},{"type":"Feature","id":50,"geometry":{"type":"Point","coordinates":[-115.19602381947975,36.114201141098597]},"properties":{"OBJECTID":50,"Station_Number":57,"Station_Names":"Palms","X":770564.39930000005,"Y":26743417.149999999,"Z":0,"Status":"Approved","Jurisdiction":"Clark County","CCWRD_Status":"Proposed Alignment"}},{"type":"Feature","id":51,"geometry":{"type":"Point","coordinates":[-115.16309982561515,36.102899779540614]},"properties":{"OBJECTID":51,"Station_Number":58,"Station_Names":"4769 Deckow","X":780306.53410000005,"Y":26739343.719999999,"Z":0,"Status":"Approved","Jurisdiction":"Clark County","CCWRD_Status":"Proposed Alignment"}},{"type":"Feature","id":52,"geometry":{"type":"Point","coordinates":[-115.16040843819191,36.101993715750893]},"properties":{"OBJECTID":52,"Station_Number":59,"Station_Names":"284 E Tropicana","X":781103.00490000006,"Y":26739017.350000001,"Z":0,"Status":"Approved","Jurisdiction":"Clark County","CCWRD_Status":"Proposed Alignment"}},{"type":"Feature","id":53,"geometry":{"type":"Point","coordinates":[-115.14720660715993,36.099618190902866]},"properties":{"OBJECTID":53,"Station_Number":60,"Station_Names":"795 E Tropicana","X":785006.75219999999,"Y":26738169.859999999,"Z":0,"Status":"Approved","Jurisdiction":"Clark County","CCWRD_Status":"Proposed Alignment"}},{"type":"Feature","id":54,"geometry":{"type":"Point","coordinates":[-115.14465074935583,36.103733021775824]},"properties":{"OBJECTID":54,"Station_Number":61,"Station_Names":"Thomas & Mack 1","X":785755.02740000002,"Y":26739671.100000001,"Z":0,"Status":"Approved","Jurisdiction":"Clark County","CCWRD_Status":"Proposed Alignment"}},{"type":"Feature","id":55,"geometry":{"type":"Point","coordinates":[-115.1478107010866,36.103979844543261]},"properties":{"OBJECTID":55,"Station_Number":62,"Station_Names":"Thomas & Mack 2","X":784821.18400000001,"Y":26739756.75,"Z":0,"Status":"Approved","Jurisdiction":"Clark County","CCWRD_Status":"Proposed Alignment"}},{"type":"Feature","id":56,"geometry":{"type":"Point","coordinates":[-115.14880623170404,36.107565821299836]},"properties":{"OBJECTID":56,"Station_Number":63,"Station_Names":"UNLV Housing 1","X":784521.27419999999,"Y":26741060.77,"Z":0,"Status":"Approved","Jurisdiction":"Clark County","CCWRD_Status":"Proposed Alignment"}},{"type":"Feature","id":57,"geometry":{"type":"Point","coordinates":[-115.14898000553585,36.106396789839962]},"properties":{"OBJECTID":57,"Station_Number":64,"Station_Names":"UNLV Housing 2","X":784471.84550000005,"Y":26740635,"Z":0,"Status":"Approved","Jurisdiction":"Clark County","CCWRD_Status":"Proposed Alignment"}},{"type":"Feature","id":58,"geometry":{"type":"Point","coordinates":[-115.15250193668163,36.107541861106206]},"properties":{"OBJECTID":58,"Station_Number":65,"Station_Names":"Harmon Square","X":783429.66509999998,"Y":26741047.190000001,"Z":0,"Status":"Approved","Jurisdiction":"Clark County","CCWRD_Status":"Proposed Alignment"}},{"type":"Feature","id":59,"geometry":{"type":"Point","coordinates":[-115.1487969869336,36.111580634156375]},"properties":{"OBJECTID":59,"Station_Number":66,"Station_Names":"UNLV Athletics 1","X":784517.47279999999,"Y":26742522.219999999,"Z":0,"Status":"Approved","Jurisdiction":"Clark County","CCWRD_Status":"Proposed Alignment"}},{"type":"Feature","id":60,"geometry":{"type":"Point","coordinates":[-115.14880727295042,36.10971226896055]},"properties":{"OBJECTID":60,"Station_Number":67,"Station_Names":"UNLV Athletics 2","X":784517.47450000001,"Y":26741842.100000001,"Z":0,"Status":"Approved","Jurisdiction":"Clark County","CCWRD_Status":"Proposed Alignment"}},{"type":"Feature","id":61,"geometry":{"type":"Point","coordinates":[-115.14557310784372,36.113956815752694]},"properties":{"OBJECTID":61,"Station_Number":68,"Station_Names":"UNLV Gaming","X":785465.80790000001,"Y":26743391.449999999,"Z":0,"Status":"Approved","Jurisdiction":"Clark County","CCWRD_Status":"Proposed Alignment"}},{"type":"Feature","id":62,"geometry":{"type":"Point","coordinates":[-115.17486410987509,36.141740711789403]},"properties":{"OBJECTID":62,"Station_Number":69,"Station_Names":"Palace Station","X":776771.94189999998,"Y":26753467.469999999,"Z":0,"Status":"Approved","Jurisdiction":"City of Las Vegas","CCWRD_Status":"Proposed Alignment"}},{"type":"Feature","id":63,"geometry":{"type":"Point","coordinates":[-115.1569189705409,36.146514223084559]},"properties":{"OBJECTID":63,"Station_Number":70,"Station_Names":"The Strat","X":782062.69960000005,"Y":26755227.859999999,"Z":0,"Status":"Approved","Jurisdiction":"City of Las Vegas","CCWRD_Status":"Proposed Alignment"}},{"type":"Feature","id":64,"geometry":{"type":"Point","coordinates":[-115.15536883497093,36.151044099757634]},"properties":{"OBJECTID":64,"Station_Number":71,"Station_Names":"Strat North","X":782513.09120000002,"Y":26756878.809999999,"Z":0,"Status":"Approved","Jurisdiction":"City of Las Vegas","CCWRD_Status":"Proposed Alignment"}},{"type":"Feature","id":65,"geometry":{"type":"Point","coordinates":[-115.15354096654633,36.150953106265717]},"properties":{"OBJECTID":65,"Station_Number":72,"Station_Names":"1700 S Las Vegas Blvd","X":783052.86089999997,"Y":26756848.07,"Z":0,"Status":"Approved","Jurisdiction":"City of Las Vegas","CCWRD_Status":"Proposed Alignment"}},{"type":"Feature","id":66,"geometry":{"type":"Point","coordinates":[-115.15336116533955,36.157011430118359]},"properties":{"OBJECTID":66,"Station_Number":73,"Station_Names":"1201-9 S Main st","X":783096.17799999996,"Y":26759053.620000001,"Z":0,"Status":"Approved","Jurisdiction":"City of Las Vegas","CCWRD_Status":"Proposed Alignment"}},{"type":"Feature","id":67,"geometry":{"type":"Point","coordinates":[-115.15055426086165,36.154540727761209]},"properties":{"OBJECTID":67,"Station_Number":74,"Station_Names":"LVB - 4th st","X":783928.77740000002,"Y":26758157.93,"Z":0,"Status":"Approved","Jurisdiction":"City of Las Vegas","CCWRD_Status":"Proposed Alignment"}},{"type":"Feature","id":68,"geometry":{"type":"Point","coordinates":[-115.15258252900534,36.159663966750756]},"properties":{"OBJECTID":68,"Station_Number":75,"Station_Names":"Boulder Plaza","X":783321.74639999995,"Y":26760020.199999999,"Z":0,"Status":"Approved","Jurisdiction":"City of Las Vegas","CCWRD_Status":"Proposed Alignment"}},{"type":"Feature","id":69,"geometry":{"type":"Point","coordinates":[-115.16302176465173,36.159548762892534]},"properties":{"OBJECTID":69,"Station_Number":76,"Station_Names":"UNLV Medical District","X":780240.39560000005,"Y":26759964.760000002,"Z":0,"Status":"Approved","Jurisdiction":"City of Las Vegas","CCWRD_Status":"Proposed Alignment"}},{"type":"Feature","id":70,"geometry":{"type":"Point","coordinates":[-115.151971929166,36.16165938151395]},"properties":{"OBJECTID":70,"Station_Number":77,"Station_Names":"The English Hotel","X":783498.7611,"Y":26760747.359999999,"Z":0,"Status":"Approved","Jurisdiction":"City of Las Vegas","CCWRD_Status":"Proposed Alignment"}},{"type":"Feature","id":71,"geometry":{"type":"Point","coordinates":[-115.15912443516034,36.165450141119777]},"properties":{"OBJECTID":71,"Station_Number":78,"Station_Names":"LV Premium Outlets","X":781381.45490000001,"Y":26762117.949999999,"Z":0,"Status":"Approved","Jurisdiction":"City of Las Vegas","CCWRD_Status":"Proposed Alignment"}},{"type":"Feature","id":72,"geometry":{"type":"Point","coordinates":[-115.15593078343845,36.169026275071175]},"properties":{"OBJECTID":72,"Station_Number":79,"Station_Names":"World Market Center","X":782318.38100000005,"Y":26763423.850000001,"Z":0,"Status":"Approved","Jurisdiction":"City of Las Vegas","CCWRD_Status":"Proposed Alignment"}},{"type":"Feature","id":73,"geometry":{"type":"Point","coordinates":[-115.15353770846467,36.168147991567373]},"properties":{"OBJECTID":73,"Station_Number":80,"Station_Names":"Symphony Park","X":783026.11840000004,"Y":26763107.260000002,"Z":0,"Status":"Approved","Jurisdiction":"City of Las Vegas","CCWRD_Status":"Proposed Alignment"}},{"type":"Feature","id":74,"geometry":{"type":"Point","coordinates":[-115.15021397294873,36.167124407550681]},"properties":{"OBJECTID":74,"Station_Number":81,"Station_Names":"City Hall","X":784008.80050000001,"Y":26762739.02,"Z":0,"Status":"Approved","Jurisdiction":"City of Las Vegas","CCWRD_Status":"Proposed Alignment"}},{"type":"Feature","id":75,"geometry":{"type":"Point","coordinates":[-115.14469897313252,36.168653937125377]},"properties":{"OBJECTID":75,"Station_Number":82,"Station_Names":"DTLV Event Center","X":785634.0906,"Y":26763303.100000001,"Z":0,"Status":"Approved","Jurisdiction":"City of Las Vegas","CCWRD_Status":"Proposed Alignment"}},{"type":"Feature","id":76,"geometry":{"type":"Point","coordinates":[-115.14210996157337,36.169820529219528]},"properties":{"OBJECTID":76,"Station_Number":83,"Station_Names":"Fremont Street","X":786396.31770000001,"Y":26763731.219999999,"Z":0,"Status":"Approved","Jurisdiction":"City of Las Vegas","CCWRD_Status":"Proposed Alignment"}},{"type":"Feature","id":77,"geometry":{"type":"Point","coordinates":[-115.14153180383531,36.169300644083414]},"properties":{"OBJECTID":77,"Station_Number":84,"Station_Names":"Slotzilla","X":786567.82200000004,"Y":26763542.75,"Z":0,"Status":"Approved","Jurisdiction":"City of Las Vegas","CCWRD_Status":"Proposed Alignment"}},{"type":"Feature","id":78,"geometry":{"type":"Point","coordinates":[-115.14683218340993,36.171919537144291]},"properties":{"OBJECTID":78,"Station_Number":85,"Station_Names":"Plaza Hotel And Casino","X":784999.12009999994,"Y":26764488.989999998,"Z":0,"Status":"Approved","Jurisdiction":"City of Las Vegas","CCWRD_Status":"Proposed Alignment"}},{"type":"Feature","id":79,"geometry":{"type":"Point","coordinates":[-115.14533781863358,36.174111239874527]},"properties":{"OBJECTID":79,"Station_Number":86,"Station_Names":"Garage Mahal at Circa","X":785436.56969999999,"Y":26765288.789999999,"Z":0,"Status":"Approved","Jurisdiction":"City of Las Vegas","CCWRD_Status":"Proposed Alignment"}},{"type":"Feature","id":80,"geometry":{"type":"Point","coordinates":[-115.14129465695562,36.172851707662176]},"properties":{"OBJECTID":80,"Station_Number":87,"Station_Names":"Downtown Grand / Mob Museum","X":786631.93019999994,"Y":26764835.710000001,"Z":0,"Status":"Approved","Jurisdiction":"City of Las Vegas","CCWRD_Status":"Proposed Alignment"}},{"type":"Feature","id":81,"geometry":{"type":"Point","coordinates":[-115.13877591257358,36.168965401839436]},"properties":{"OBJECTID":81,"Station_Number":88,"Station_Names":"El Cortez","X":787381.78659999999,"Y":26763424.43,"Z":0,"Status":"Approved","Jurisdiction":"City of Las Vegas","CCWRD_Status":"Proposed Alignment"}},{"type":"Feature","id":82,"geometry":{"type":"Point","coordinates":[-115.16480964142389,36.112875075437181]},"properties":{"OBJECTID":82,"Station_Number":89,"Station_Names":"Caesars East","X":779785.82310000004,"Y":26742972.66,"Z":0,"Status":"Approved","Jurisdiction":"Clark County","CCWRD_Status":"Proposed Alignment"}},{"type":"Feature","id":83,"geometry":{"type":"Point","coordinates":[-115.15452737541173,36.110013446311164]},"properties":{"OBJECTID":83,"Station_Number":90,"Station_Names":"Virgin Hotel","X":782827.41700000002,"Y":26741944.23,"Z":0,"Status":"Approved","Jurisdiction":"Clark County","CCWRD_Status":"Proposed Alignment"}},{"type":"Feature","id":84,"geometry":{"type":"Point","coordinates":[-115.1598549496769,36.136459703817657]},"properties":{"OBJECTID":84,"Station_Number":91,"Station_Names":"LVB - Elvis Presley","X":781211.84519999998,"Y":26751564.09,"Z":0,"Status":"Approved","Jurisdiction":"Clark County","CCWRD_Status":"Proposed Alignment"}},{"type":"Feature","id":85,"geometry":{"type":"Point","coordinates":[-115.16763435703581,36.118522973007131]},"properties":{"OBJECTID":85,"Station_Number":92,"Station_Names":"Caesars Forum","X":778942.71519999998,"Y":26745024.98,"Z":0,"Status":"Approved","Jurisdiction":"Clark County","CCWRD_Status":"Proposed Alignment"}},{"type":"Feature","id":86,"geometry":{"type":"Point","coordinates":[-115.17832179569835,36.109027047182323]},"properties":{"OBJECTID":86,"Station_Number":93,"Station_Names":"Vdara","X":775800.67240000004,"Y":26741555.030000001,"Z":0,"Status":"Approved","Jurisdiction":"Clark County","CCWRD_Status":"Proposed Alignment"}},{"type":"Feature","id":87,"geometry":{"type":"Point","coordinates":[-115.15049213274604,36.104207195858962]},"properties":{"OBJECTID":87,"Station_Number":94,"Station_Names":"4744 Paradise Rd","X":784028.73069999996,"Y":26739835.9714,"Z":0,"Status":"Proposed","Jurisdiction":"Clark County","CCWRD_Status":"Proposed Alignment"}},{"type":"Feature","id":88,"geometry":{"type":"Point","coordinates":[-115.17023802944787,36.060043553596621]},"properties":{"OBJECTID":88,"Station_Number":95,"Station_Names":"Tahiti Village","X":778264.15000000002,"Y":26723734.614100002,"Z":0,"Status":"Proposed","Jurisdiction":"Clark County","CCWRD_Status":"Proposed Alignment"}},{"type":"Feature","id":89,"geometry":{"type":"Point","coordinates":[-115.18942050390355,36.12945211940454]},"properties":{"OBJECTID":89,"Station_Number":96,"Station_Names":"3310 Valley View","X":772492.23770000006,"Y":26748976.520100001,"Z":0,"Status":"Proposed","Jurisdiction":"Clark County","CCWRD_Status":"Proposed Alignment"}},{"type":"Feature","id":90,"geometry":{"type":"Point","coordinates":[-115.15956849853964,36.135828355860099]},"properties":{"OBJECTID":90,"Station_Number":5,"Station_Names":"LVCC Riviera","X":781297.42929999996,"Y":26751334.640000001,"Z":0,"Status":"Active","Jurisdiction":"Clark County","CCWRD_Status":"Under CCWRD Review"}},{"type":"Feature","id":91,"geometry":{"type":"Point","coordinates":[-115.15991028887997,36.132602012991832]},"properties":{"OBJECTID":91,"Station_Number":6,"Station_Names":"LVCC West","X":781201.62459999998,"Y":26750159.77,"Z":0,"Status":"Active","Jurisdiction":"Clark County","CCWRD_Status":"Approved by CCBD but not CCWRD"}},{"type":"Feature","id":92,"geometry":{"type":"Point","coordinates":[-115.164966512657,36.132771917781838]},"properties":{"OBJECTID":92,"Station_Number":9,"Station_Names":"Resorts World","X":779708.31149999995,"Y":26750215.149999999,"Z":0,"Status":"Active","Jurisdiction":"Clark County","CCWRD_Status":"Approved by CCWRD"}},{"type":"Feature","id":93,"geometry":{"type":"Point","coordinates":[-115.15296152684353,36.131313500310952]},"properties":{"OBJECTID":93,"Station_Number":10,"Station_Names":"LVCC Central","X":783255.59490000003,"Y":26749699.75,"Z":0,"Status":"Active","Jurisdiction":"Clark County","CCWRD_Status":"Approved by CCBD but not CCWRD"}},{"type":"Feature","id":94,"geometry":{"type":"Point","coordinates":[-115.16327351153349,36.129294545972876]},"properties":{"OBJECTID":94,"Station_Number":11,"Station_Names":"Encore","X":780213.70689999999,"Y":26748951.5,"Z":0,"Status":"Active","Jurisdiction":"Clark County","CCWRD_Status":"Approved by CCWRD"}},{"type":"Feature","id":95,"geometry":{"type":"Point","coordinates":[-115.15293134237078,36.135895922632223]},"properties":{"OBJECTID":95,"Station_Number":12,"Station_Names":"Westgate Station","X":783257.11919999996,"Y":26751367.850000001,"Z":0,"Status":"Active","Jurisdiction":"Clark County","CCWRD_Status":"Approved by CCWRD"}},{"type":"Feature","id":96,"geometry":{"type":"Point","coordinates":[-115.14638080321178,36.128991238838381]},"properties":{"OBJECTID":96,"Station_Number":13,"Station_Names":"LVCC South","X":785202.64359999995,"Y":26748863.09,"Z":0,"Status":"Active","Jurisdiction":"Clark County","CCWRD_Status":"Approved by CCWRD"}}]}